[
  {
    "id": 1,
    "shopName": "Café Zest",
    "emoji": "☕",
    "category": "food",
    "title": "50% off All Beverages",
    "discount": 50,
    "distance": 0.2,
    "flash": true,
    "rating": 4.8,
    "originalPrice": 650,
    "price": 325,
    "description": "All hot and cold drinks at half price. Valid for dine-in only. Includes specialty coffees, teas, and cold brew.",
    "coordinates": {"lat": 31.5204, "lng": 74.3587}
  },
  {
    "id": 2,
    "shopName": "TechZone",
    "emoji": "📱",
    "category": "electronics",
    "title": "iPhone Case Bundle — 3 for 1",
    "discount": 66,
    "distance": 0.45,
    "flash": false,
    "rating": 4.5,
    "originalPrice": 3600,
    "price": 1200,
    "description": "Pick any 3 premium phone cases for the price of one. Covers all major brands.",
    "coordinates": {"lat": 31.5215, "lng": 74.3599}
  },
  {
    "id": 3,
    "shopName": "Zara Outlet",
    "emoji": "👗",
    "category": "fashion",
    "title": "End of Season — 40% Off",
    "discount": 40,
    "distance": 0.7,
    "flash": false,
    "rating": 4.2,
    "originalPrice": 8500,
    "price": 5100,
    "description": "Selected styles from the spring collection at 40% off. In-store only.",
    "coordinates": {"lat": 31.5180, "lng": 74.3550}
  },
  {
    "id": 4,
    "shopName": "GlowUp Studio",
    "emoji": "✨",
    "category": "beauty",
    "title": "Facial + Massage Combo",
    "discount": 35,
    "distance": 0.3,
    "flash": true,
    "rating": 4.9,
    "originalPrice": 4500,
    "price": 2925,
    "description": "60-minute facial paired with a 30-minute shoulder & neck massage by certified therapists.",
    "coordinates": {"lat": 31.5220, "lng": 74.3605}
  },
  {
    "id": 7,
    "shopName": "Burger Bros",
    "emoji": "🍔",
    "category": "food",
    "title": "Double Burger Wednesday",
    "discount": 50,
    "distance": 0.15,
    "flash": true,
    "rating": 4.7,
    "originalPrice": 1200,
    "price": 600,
    "description": "Every Wednesday: buy one double smash burger, get one free. Dine-in or takeaway.",
    "coordinates": {"lat": 31.5195, "lng": 74.3570}
  }
]
